{
  "description": "30 orígenes de prueba distribuidos en zonas de Mar del Plata con tramas urbanas distintas. Usados por el banco de evaluación del planificador de rutas (bench/route-eval.js).",
  "origins": [
    { "zone": "centro",        "name": "Plaza San Martín",        "lat": -38.0038, "lng": -57.5450 },
    { "zone": "centro",        "name": "Catedral",                "lat": -38.0055, "lng": -57.5426 },
    { "zone": "centro",        "name": "Plaza Colón",             "lat": -38.0023, "lng": -57.5389 },
    { "zone": "centro",        "name": "Diagonal Pueyrredón",     "lat": -38.0010, "lng": -57.5480 },
    { "zone": "centro",        "name": "Terminal vieja",          "lat": -37.9989, "lng": -57.5533 },
    { "zone": "guemes",        "name": "Güemes y Alvarado",       "lat": -38.0163, "lng": -57.5424 },
    { "zone": "guemes",        "name": "Plaza Mitre",             "lat": -38.0107, "lng": -57.5442 },
    { "zone": "guemes",        "name": "Güemes y Rodríguez Peña", "lat": -38.0198, "lng": -57.5407 },
    { "zone": "costa",         "name": "Playa Grande",            "lat": -38.0284, "lng": -57.5312 },
    { "zone": "costa",         "name": "Cabo Corrientes",         "lat": -38.0182, "lng": -57.5265 },
    { "zone": "costa",         "name": "Varese",                  "lat": -38.0133, "lng": -57.5308 },
    { "zone": "costa",         "name": "Torreón del Monje",       "lat": -38.0089, "lng": -57.5300 },
    { "zone": "costa",         "name": "Perla Norte",             "lat": -37.9905, "lng": -57.5410 },
    { "zone": "puerto",        "name": "Centro Comercial Puerto", "lat": -38.0455, "lng": -57.5395 },
    { "zone": "puerto",        "name": "Escollera Sur",           "lat": -38.0511, "lng": -57.5300 },
    { "zone": "puerto",        "name": "12 de Octubre y Juramento","lat": -38.0428, "lng": -57.5480 },
    { "zone": "residencial",   "name": "Barrio Los Troncos",      "lat": -38.0231, "lng": -57.5478 },
    { "zone": "residencial",   "name": "Divino Rostro",           "lat": -38.0195, "lng": -57.5550 },
    { "zone": "residencial",   "name": "Barrio Chauvin",          "lat": -38.0126, "lng": -57.5560 },
    { "zone": "residencial",   "name": "Barrio La Perla",         "lat": -37.9932, "lng": -57.5478 },
    { "zone": "residencial",   "name": "Plaza Pueyrredón",        "lat": -37.9975, "lng": -57.5601 },
    { "zone": "norte",         "name": "Constitución y la costa", "lat": -37.9714, "lng": -57.5417 },
    { "zone": "norte",         "name": "Av. Constitución 5500",   "lat": -37.9720, "lng": -57.5560 },
    { "zone": "norte",         "name": "Parque Camet",            "lat": -37.9385, "lng": -57.5359 },
    { "zone": "norte",         "name": "Barrio Constitución",     "lat": -37.9660, "lng": -57.5650 },
    { "zone": "oeste",         "name": "Plaza Rocha",             "lat": -37.9998, "lng": -57.5570 },
    { "zone": "oeste",         "name": "Barrio Plaza Peralta Ramos", "lat": -38.0080, "lng": -57.5690 },
    { "zone": "oeste",         "name": "San Juan y Alberti",      "lat": -38.0060, "lng": -57.5580 },
    { "zone": "sur",           "name": "Bosque Peralta Ramos",    "lat": -38.0680, "lng": -57.5620 },
    { "zone": "sur",           "name": "Punta Mogotes",           "lat": -38.0830, "lng": -57.5390 }
  ]
}
